{"latitude": "53.008769", "user_id": 11, "name": "Richard Finnegan", "longitude": "-6.1056711"}
{"latitude": "53.1489345", "user_id": 31, "name": "Alan Behan", "longitude": "-6.8422408"}
{"latitude": "53", "user_id": 13, "name": "Olive Ahearn", "longitude": "-7"}
{"latitude": "51.999447", "user_id": 14, "name": "Helen Cahill", "longitude": "-9.742744"}
{"latitude": "52.966", "user_id": 15, "name": "Michael Ahearn", "longitude": "-6.463"}
{"latitude": "52.366037", "user_id": 16, "name": "Ian Larkin", "longitude": "-8.179118"}
{"latitude": "54.180238", "user_id": 17, "name": "Patricia Cahill", "longitude": "-5.920898"}
{"latitude": "53.0033946", "user_id": 39, "name": "Lisa Ahearn", "longitude": "-6.3877505"}